City_ID,City,Lat,Lng,Max Temp,Humidity,Cloudiness,Wind Speed,Country,Date
0,vorkuta,67.5,64.0,266.78,93,59,6.54,RU,1682639874
1,shima,24.4478,117.8111,293.16,74,10,0.35,CN,1682639938
2,waitangi,-43.9535,-176.5597,286.38,78,96,1.34,NZ,1682639798
3,adamstown,-25.066,-130.1015,297.1,66,96,2.57,PN,1682639868
4,puerto ayora,-0.7393,-90.3518,300.12,89,70,2.24,EC,1682639876
5,albany,42.6001,-73.9662,285.31,56,39,0.55,US,1682639871
6,orerokpe,5.6351,5.8896,296.03,92,100,1.22,NG,1682639939
7,nalut,30.3333,10.85,295.86,22,0,6.32,LY,1682639939
8,port augusta,-32.5,137.7667,291.49,66,57,3.61,AU,1682639939
9,port mathurin,-19.6833,63.4167,299.0,81,58,6.41,MU,1682639891
10,tolanaro,-25.0319,46.9987,294.19,94,75,2.06,MG,1682639874
11,sungai penuh,-2.0833,101.3833,292.03,95,87,0.58,ID,1682639940
12,lebu,-37.6167,-73.65,287.69,95,100,5.59,CL,1682639908
13,yellowknife,62.456,-114.3525,279.44,70,75,7.2,CA,1682639828
14,grytviken,-54.2811,-36.5092,274.58,82,35,3.62,GS,1682639782
15,la passe,45.5549,-0.8967,288.28,90,99,1.77,FR,1682639940
16,talnakh,69.4865,88.3972,261.99,95,85,1.29,RU,1682639881
17,sola,-13.8833,167.55,300.33,71,9,0.96,VU,1682639941
18,bredasdorp,-34.5322,20.0403,286.59,85,8,2.03,ZA,1682639589
19,minas de marcona,-15.2119,-75.1103,290.42,82,9,4.8,PE,1682639941
20,margaret river,-33.95,115.0667,286.34,69,92,3.61,AU,1682639790
21,mahibadhoo,3.7833,72.9667,301.75,72,92,1.81,MV,1682639942
22,bilibino,68.0546,166.4372,267.77,63,9,0.63,RU,1682639789
23,bonthe,7.5264,-12.505,300.35,75,48,4.26,SL,1682639942
24,lihue,21.9789,-159.3672,301.73,65,0,6.17,US,1682639942
25,wuwei,37.9281,102.6414,278.54,27,66,7.18,CN,1682639943
26,ubari,26.5921,12.7805,297.32,16,0,3.79,LY,1682639943
27,west island,-12.1568,96.8225,300.14,89,75,5.14,CC,1682639682
28,stanley,54.868,-1.6985,280.24,83,20,2.57,GB,1682639618
29,nehe,48.4833,124.8333,284.47,24,74,8.19,CN,1682639943
30,alaghsas,17.0187,8.0168,303.22,14,29,3.53,NE,1682639944
31,whitehorse,60.7161,-135.0538,280.27,44,75,7.2,CA,1682639904
32,punta arenas,-53.15,-70.9167,278.21,65,0,6.17,CL,1682639865
33,port-aux-francais,-49.35,70.2167,278.76,67,87,12.01,TF,1682639790
34,kahriz,34.3838,47.0553,280.19,76,0,2.06,IR,1682639944
35,codrington,-38.2667,141.9667,285.91,70,100,6.26,AU,1682639887
36,port-vila,-17.7338,168.3219,301.93,70,40,3.6,VU,1682639945
37,shenjiamen,29.9576,122.298,290.54,92,76,4.28,CN,1682639945
38,magistral'nyy,56.1725,107.4458,274.95,72,48,1.74,RU,1682639945
39,new plymouth,-39.0667,174.0833,287.21,60,100,1.49,NZ,1682639946
40,nar'yan-mar,67.6713,53.087,268.55,93,98,3.93,RU,1682639817
41,bethel,41.3712,-73.414,284.55,83,78,1.35,US,1682639946
42,nova sintra,14.8667,-24.7167,293.37,78,15,8.29,CV,1682639864
43,blackmans bay,-43.0167,147.3167,293.56,57,36,4.71,AU,1682639874
44,hasaki,35.7333,140.8333,293.37,65,25,8.23,JP,1682639947
45,kimbe,-5.5502,150.1429,304.24,66,43,0.58,PG,1682639947
46,malango,-2.9627,119.9001,295.81,93,100,0.32,ID,1682639716
47,edinburgh of the seven seas,-37.0676,-12.3116,289.52,78,82,4.15,SH,1682639883
48,puerto natales,-51.7236,-72.4875,277.01,94,89,2.08,CL,1682639948
49,kuqa,41.7278,82.9364,286.96,18,0,3.15,CN,1682639948
50,argo,37.6333,22.7333,285.25,75,43,1.45,GR,1682639949
51,baihe,22.15,107.2333,297.21,80,91,2.25,CN,1682639949
52,iqaluit,63.7506,-68.5145,272.0,92,100,6.71,CA,1682639872
53,susuman,62.7833,148.1667,269.91,80,92,1.54,RU,1682639894
54,warah,27.4481,67.7978,299.02,41,19,1.13,PK,1682639950
55,katsuura,35.1333,140.3,292.21,64,24,7.0,JP,1682639950
56,elliot,-31.3333,27.85,285.24,91,53,1.2,ZA,1682639950
57,aykhal,66.0,111.5,268.04,93,96,2.35,RU,1682639951
58,tottori,35.5,134.2333,289.19,55,0,3.09,JP,1682639858
59,saipan,15.1355,145.701,301.54,81,20,9.26,MP,1682639926
60,mangai,-4.05,19.5333,294.83,93,16,0.56,CD,1682639951
61,hami,42.8,93.45,282.41,14,6,4.73,CN,1682639797
62,carnarvon,-24.8667,113.6333,293.08,49,87,10.36,AU,1682639889
63,hamilton,39.1834,-84.5333,292.5,43,100,5.14,US,1682639405
64,san sebastian de la gomera,28.0916,-17.1133,294.91,88,75,0.51,ES,1682639952
65,pacific grove,36.6177,-121.9166,298.51,73,0,4.02,US,1682639953
66,andergrove,-21.0833,149.1833,300.18,77,31,6.92,AU,1682639953
67,ilulissat,69.2167,-51.1,272.16,86,0,2.06,GL,1682639786
68,lillehammer,61.1146,10.4674,267.26,90,100,2.35,NO,1682639953
69,invercargill,-46.4,168.35,284.83,82,44,0.89,NZ,1682639954
70,lerwick,60.1545,-1.1494,277.15,90,86,7.14,GB,1682639954
71,thompson,55.7435,-97.8558,278.24,45,20,4.12,CA,1682639795
72,college,64.8569,-147.8028,280.33,44,40,3.6,US,1682639788
73,lompoc,34.6391,-120.4579,299.27,81,75,2.68,US,1682639955
74,jamestown,42.097,-79.2353,286.95,44,0,4.63,US,1682639892
75,sang-e charak,35.8497,66.4369,285.83,22,0,1.15,AF,1682639956
76,gorontalo,0.5412,123.0595,300.85,78,72,0.71,ID,1682639956
77,port lincoln,-34.7333,135.8667,288.91,51,86,7.11,AU,1682639956
78,taroa,8.7058,171.2275,300.66,81,68,7.12,MH,1682639956
79,hadibu,12.65,54.0333,301.33,74,49,3.62,YE,1682639957
80,georgiyevka,43.0369,74.7114,283.17,71,0,1.0,KZ,1682639957
81,ulladulla,-35.35,150.4667,295.94,43,7,3.11,AU,1682639957
82,afaahiti,-17.75,-149.2833,302.08,75,88,3.25,PF,1682639958
83,tiksi,71.6872,128.8694,267.37,80,25,0.75,RU,1682639691
84,inarajan village,13.2736,144.7484,303.03,84,17,9.05,GU,1682639887
85,bontang,0.1333,117.5,299.84,83,100,2.88,ID,1682639958
86,banjarmasin,-3.3244,114.591,299.31,88,84,1.39,ID,1682639958
87,chibougamau,49.9168,-74.3659,279.94,49,100,2.06,CA,1682639958
88,luderitz,-26.6481,15.1594,288.57,65,10,4.44,,1682639959
89,utrik,11.2278,169.8474,299.97,83,68,9.05,MH,1682639959
90,brandon,27.9378,-82.2859,301.64,70,0,5.14,US,1682639959
91,pisco,-13.7,-76.2167,295.18,83,0,7.72,PE,1682639835
92,mahina,-17.5065,-149.489,303.02,74,75,3.6,PF,1682639960
93,neiafu,-18.65,-173.9833,301.53,78,40,6.69,TO,1682639960
94,asau,46.4333,26.4,275.66,81,22,2.61,RO,1682639961
95,vila franca do campo,37.7167,-25.4333,290.38,90,100,5.68,PT,1682639962
96,waddan,29.1614,16.139,293.27,41,0,2.56,LY,1682639962
97,ust'-kulom,61.6864,53.6902,269.38,91,58,2.83,RU,1682639962
98,saint-philippe,-21.3585,55.7679,294.92,79,49,4.53,RE,1682639733
99,coquimbo,-29.9533,-71.3436,288.0,82,75,3.09,CL,1682639759
100,udachny,66.4167,112.4,270.07,73,77,2.18,RU,1682639963
101,ushuaia,-54.8,-68.3,276.96,81,40,8.75,AR,1682639582
102,port saint john's,-31.6229,29.5448,294.14,87,60,3.1,ZA,1682639964
103,atafu village,-8.5421,-172.5159,302.1,72,64,7.34,TK,1682639899
104,lorengau,-2.0226,147.2712,301.64,78,73,1.01,PG,1682639964
105,sotkamo,64.1333,28.4167,278.16,96,100,4.74,FI,1682639964
106,roma,43.2128,-75.4557,288.23,29,0,1.54,US,1682639906
107,ribeira grande,38.5167,-28.7,289.69,86,12,7.15,PT,1682639911
108,lusambo,-4.9667,23.45,294.77,93,67,1.02,CD,1682639961
109,hithadhoo,-0.6,73.0833,301.67,76,100,4.02,MV,1682639852
110,constantia,44.1833,28.65,277.53,62,81,7.76,RO,1682639965
111,papatowai,-46.5619,169.4708,284.05,72,13,1.44,NZ,1682639870
112,bengkulu,-3.8004,102.2655,297.64,93,98,2.36,ID,1682639936
113,barra de santo antonio,-9.4047,-35.5072,298.75,87,79,2.64,BR,1682639966
114,buka,40.8108,69.1986,290.42,44,20,1.24,UZ,1682639966
115,ejea de los caballeros,42.1263,-1.1372,292.27,42,84,3.03,ES,1682639967
116,harper,4.375,-7.7169,300.28,82,50,2.9,LR,1682639761
117,meizhou,24.2977,116.1072,296.18,73,9,1.1,CN,1682639967
118,sierra grande,-41.606,-65.3557,287.53,44,54,0.89,AR,1682639968
119,kapuskasing,49.4169,-82.4331,277.15,87,100,5.14,CA,1682639968
120,al mijlad,11.0333,27.7333,304.74,37,100,4.15,SD,1682639968
121,adi keyh,14.8444,39.3772,289.75,60,76,1.15,ER,1682639968
122,zaozersk,69.4005,32.4476,265.88,95,25,2.01,RU,1682639969
123,ancud,-41.8697,-73.8203,286.14,94,100,4.99,CL,1682639886
124,zajecar,43.9036,22.2641,277.91,74,10,2.44,RS,1682639969
125,kodiak,57.79,-152.4072,278.88,75,100,4.63,US,1682639587
126,port elizabeth,-33.918,25.5701,291.54,91,40,2.57,ZA,1682639869
127,uglegorsk,49.0833,142.0333,275.96,78,18,4.27,RU,1682639970
128,keflavik,64.0049,-22.5624,275.1,86,40,4.12,IS,1682639855
129,arawa,-6.2132,155.5367,303.82,69,17,1.97,PG,1682639971
130,natal,-5.795,-35.2094,300.51,83,20,2.57,BR,1682639971
131,hawaiian paradise park,19.5933,-154.9731,299.88,73,75,6.17,US,1682639971
132,robertsport,6.7533,-11.3686,301.43,81,15,4.57,LR,1682639971
133,fortuna,40.5982,-124.1573,293.67,69,11,1.34,US,1682639762
134,zeya,53.75,127.2667,278.16,50,46,2.06,RU,1682639875
135,minab,27.1467,57.0801,296.33,60,80,0.51,IR,1682639972
136,ust-nera,64.5667,143.2,270.91,80,23,0.93,RU,1682639877
137,tura,25.5198,90.2201,295.71,55,47,1.09,IN,1682639973
138,isafjordur,66.0755,-23.124,271.34,65,8,2.9,IS,1682639907
139,santa cruz,-17.8,-63.1667,296.18,83,40,3.09,BO,1682639918
140,sinabang,2.4803,96.3801,299.21,85,100,0.65,ID,1682639905
141,qaqortoq,60.7167,-46.0333,274.6,82,7,1.72,GL,1682639973
142,oamaru,-45.0784,170.9801,288.92,68,3,6.37,NZ,1682639974
143,fort bragg,35.139,-79.006,291.94,86,100,3.09,US,1682639974
144,center,31.5107,-96.4247,295.51,55,9,0.45,US,1682639974
145,mizdah,31.4451,12.9801,290.22,48,1,3.36,LY,1682639974
146,olonkinbyen,70.9221,-8.7187,271.34,95,100,10.82,SJ,1682639844
147,tsiombe,-25.3,45.4833,294.08,86,0,4.76,MG,1682639906
148,vilhena,-12.7406,-60.1458,297.27,83,40,2.06,BR,1682639975
149,biratnagar,26.4831,87.2834,296.66,39,1,1.58,NP,1682639975
150,kulhudhuffushi,6.6221,73.07,301.76,73,90,1.49,MV,1682639885
151,mao,39.8885,4.2658,289.46,88,0,2.06,ES,1682639976
152,crane,31.3974,-102.3501,299.12,15,0,2.29,US,1682639976
153,smyrna,33.884,-84.5144,289.23,93,100,4.63,US,1682639974
154,richards bay,-28.783,32.0377,296.64,82,48,8.06,ZA,1682639977
155,klyuchi,52.2667,79.1667,286.61,54,74,4.13,RU,1682639977
156,cabo san lucas,22.8909,-109.9124,301.82,47,0,6.69,MX,1682639702
157,yamada,39.4667,141.95,288.65,42,39,3.18,JP,1682639978
158,fort st. john,56.2499,-120.8529,286.09,33,75,10.8,CA,1682639813
159,devils lake,48.1128,-98.8651,282.21,83,100,2.57,US,1682639978
160,dalandzadgad,43.5708,104.425,272.04,44,51,12.14,MN,1682639979
161,maragogi,-9.0122,-35.2225,298.71,87,94,2.22,BR,1682639874
162,vangviang,18.9333,102.45,299.12,74,0,0.61,LA,1682639979
163,st. john's,47.5649,-52.7093,273.86,93,100,7.2,CA,1682639927
164,badger,64.8,-147.5333,280.29,43,40,3.6,US,1682639979
165,novoorsk,51.381,58.9813,282.51,52,100,1.36,RU,1682639980
166,loboc,9.6383,124.0348,301.71,73,33,3.97,PH,1682639980
167,cururupu,-1.8283,-44.8683,296.07,98,79,1.31,BR,1682639928
168,walvis bay,-22.9575,14.5053,288.2,69,1,4.65,,1682639781
169,lubao,14.9167,120.55,300.99,67,14,3.07,PH,1682639981
170,jining,35.405,116.5814,289.96,71,99,1.99,CN,1682639981
171,ballina,-28.8667,153.5667,294.3,71,36,2.04,AU,1682639981
172,east wenatchee bench,47.4257,-120.2812,297.78,27,0,4.12,US,1682639981
173,kill devil hills,36.0307,-75.676,289.16,82,40,3.6,US,1682639782
174,cromer,52.9312,1.2989,282.15,87,100,10.77,GB,1682639982
175,sendai,38.2689,140.8719,286.81,54,0,1.54,JP,1682639982
176,papao,-17.75,-149.55,302.97,75,78,2.18,PF,1682639907
177,rodolfo sanchez taboada,31.7167,-116.5667,289.87,74,20,1.34,MX,1682639983
178,cockburn town,21.4612,-71.1419,299.18,72,92,5.02,TC,1682639983
179,anadyr,64.75,177.4833,265.43,78,0,4.0,RU,1682639873
180,tadine,-21.55,167.8833,297.04,72,81,7.93,NC,1682639983
181,sanandaj,35.3144,46.9923,280.16,76,0,0.0,IR,1682639984
182,alofi,-19.0595,-169.9187,301.09,78,75,5.14,NU,1682639907
183,namibe,-15.1961,12.1522,296.93,75,26,0.56,AO,1682639808
184,smithers,54.7804,-127.1743,284.33,43,75,4.12,CA,1682639816
185,dhana,23.75,78.85,297.96,52,100,3.08,IN,1682639984
186,altus,34.6381,-99.334,292.88,54,0,2.06,US,1682639827
187,inari,68.906,27.0288,274.26,97,95,1.26,FI,1682639985
188,labrador city,52.9463,-66.9114,283.1,46,20,2.57,CA,1682639985
189,chos malal,-37.3781,-70.2709,289.51,23,44,1.88,AR,1682639986
190,enewetak,11.3474,162.3373,300.12,80,46,9.31,MH,1682639986
191,kwang binh,17.4833,106.6,298.56,87,51,2.41,VN,1682639986
192,severo-yeniseyskiy,60.3725,93.0408,270.52,94,100,1.6,RU,1682639986
193,lesnoy,57.6198,63.0784,284.33,78,9,4.98,RU,1682639987
194,sandakan,5.8402,118.1179,298.97,94,20,1.03,MY,1682639987
195,undurkhaan,47.3194,110.6556,275.14,46,71,5.64,MN,1682639987
196,zhytkavichy,52.2168,27.8561,275.62,80,10,2.61,BY,1682639987
197,xiazhuang,34.9161,118.6389,288.97,70,74,2.51,CN,1682639988
198,luanda,-8.8368,13.2343,300.15,89,40,2.06,AO,1682639866
199,lumphat,13.4878,106.9816,300.23,66,69,2.6,KH,1682639988
200,broome,42.2506,-75.833,285.73,62,50,2.27,US,1682639988
201,homestead meadows north,31.8496,-106.1729,300.67,8,40,3.09,US,1682639988
202,ridder,50.355,83.5133,278.59,75,96,2.19,KZ,1682639989
203,bals,44.35,24.1,280.85,65,0,2.57,RO,1682639989
204,remire-montjoly,4.9167,-52.2667,297.17,100,0,0.0,GF,1682639813
205,chapaev,50.2,51.1667,287.12,54,15,2.33,KZ,1682639989
206,balakhta,55.38,91.6,280.46,90,100,3.81,RU,1682639990
207,georgetown,5.4112,100.3354,300.11,94,20,2.06,MY,1682639891
208,zouerate,22.7187,-12.4521,304.26,19,28,4.97,MR,1682639990
209,rafraf,37.1904,10.1837,288.32,69,91,2.1,TN,1682639990
210,zheleznogorsk-ilimskiy,56.5768,104.1217,272.55,83,58,2.05,RU,1682639990
211,salalah,17.0151,54.0924,300.49,86,18,2.62,OM,1682639991
212,medina,24.4686,39.6142,300.39,11,0,4.63,SA,1682639825
213,el bauga,18.262,33.9081,301.04,10,99,4.78,SD,1682639991
214,la rioja,42.25,-2.5,285.03,39,100,2.88,ES,1682639991
215,valparaiso,-33.0393,-71.6273,288.71,66,100,2.06,CL,1682639850
216,mahajanga,-15.7167,46.3167,298.16,94,40,1.54,MG,1682639992
217,antsiranana,-12.2787,49.2917,298.5,76,43,6.82,MG,1682639700
218,greymouth,-42.4667,171.2,288.46,61,6,0.94,NZ,1682639992
219,petropavlovsk-kamchatsky,53.0452,158.6483,276.48,45,75,6.0,RU,1682639992
220,chita,52.0333,113.55,274.09,43,20,0.0,RU,1682639993
221,sosnovo-ozerskoye,52.5249,111.5418,274.87,55,90,1.93,RU,1682639993
222,turaif,31.6725,38.6637,289.29,33,0,4.12,SA,1682639993
223,novo aripuana,-5.1206,-60.3797,297.29,93,59,0.43,BR,1682639993
224,manismata,-2.4667,111.0333,297.9,96,99,0.5,ID,1682639993
225,kramfors,62.9316,17.7765,274.03,95,100,0.62,SE,1682639994
226,mabaruma,8.2,-59.7833,296.68,98,100,1.58,GY,1682639994
227,senanga,-16.1167,23.2667,290.98,50,6,2.69,ZM,1682639994
228,sauri,11.7266,6.7837,297.15,72,100,7.85,NG,1682639994
229,newman,37.3138,-121.0208,307.34,30,9,1.34,US,1682639855
230,rozhdestveno,53.2375,50.0597,286.7,55,98,1.1,RU,1682639995
231,prainha,-1.8,-53.48,297.35,88,41,1.71,BR,1682639995
232,nagqu,31.5,92.0,271.07,93,100,3.45,CN,1682639995
233,ixtapa,20.7,-105.2,299.39,75,4,3.13,MX,1682639769
234,magadan,59.5667,150.8,274.6,73,4,3.87,RU,1682639995
235,nhamunda,-2.1861,-56.7131,297.78,88,88,1.17,BR,1682639996
236,twon-brass,4.3151,6.2418,298.31,84,100,4.3,NG,1682639996
237,kourou,5.1552,-52.6478,297.18,89,99,2.35,GF,1682639996
238,alice springs,-23.7,133.8833,293.9,49,100,2.57,AU,1682639773
239,nikfer,37.4054,29.1373,278.93,93,60,3.07,TR,1682639997
240,thanh hoa,19.8,105.7667,298.55,85,35,1.63,VN,1682639997
241,san patricio,28.017,-97.5169,300.12,60,35,1.94,US,1682639997
242,san antonio de pale,-1.4014,5.6325,300.9,76,99,1.43,GQ,1682639998
243,prado,-17.3411,-39.2208,298.1,84,0,4.27,BR,1682639998
244,pirot,43.1531,22.5861,275.71,86,3,1.26,RS,1682639998
245,ponta pora,-22.5361,-55.7256,288.63,87,0,1.77,BR,1682639999
246,colonia,50.9333,6.95,286.46,56,0,2.06,DE,1682639814
247,qal'ah-ye shahr,35.5473,65.5676,281.88,21,1,2.14,AF,1682639999
248,calbuco,-41.768,-73.1273,287.71,88,100,6.87,CL,1682639999
249,haiku-pauwela,20.9219,-156.3051,297.16,78,75,6.17,US,1682640001
250,borba,-4.3878,-59.5939,297.97,88,82,1.0,BR,1682640002
251,antofagasta,-23.65,-70.4,290.75,84,39,4.69,CL,1682640015
252,taoudenni,22.6783,-3.9836,304.34,8,1,5.85,ML,1682639864
253,north platte,41.1239,-100.7654,287.09,72,100,8.94,US,1682640023
254,klaksvik,62.2266,-6.589,274.66,65,100,5.65,FO,1682640023
255,greenland,43.0362,-70.8328,284.73,81,20,3.6,US,1682640024
256,avarua,-21.2078,-159.775,299.18,69,100,3.09,CK,1682639581
257,kerben,40.2951,72.1863,284.43,38,35,2.27,KG,1682640024
258,alta,69.9689,23.2717,276.74,64,20,1.03,NO,1682640036
259,vavozh,56.7751,51.931,281.13,97,27,2.0,RU,1682640036
260,goundi,9.3627,17.366,304.45,38,89,2.65,TD,1682640046
261,chonchi,-42.6128,-73.8092,285.44,98,100,3.06,CL,1682639879
262,la mira,18.035,-102.3266,300.64,56,100,4.51,MX,1682640047
263,guatrache,-37.6678,-63.5302,292.7,48,64,2.29,AR,1682640047
264,lansdowne,39.9382,-75.2719,287.67,76,96,2.24,US,1682640047
265,aasiaat,68.7098,-52.8699,269.83,92,24,1.66,GL,1682640048
266,mugia,43.1041,-9.2179,287.13,79,100,0.8,ES,1682640048
267,champerico,14.3,-91.9167,305.45,64,33,3.38,GT,1682640048
268,shahrak,34.1074,64.3052,283.33,37,57,2.0,AF,1682640048
269,kirensk,57.7853,108.1119,275.07,87,83,2.18,RU,1682640049
270,san lorenzo,-25.3333,-57.5333,291.81,93,0,0.0,PY,1682640052
271,new norfolk,-42.7826,147.0587,294.22,54,27,0.89,AU,1682639895
272,vikulovo,56.8167,70.6107,285.34,69,29,4.12,RU,1682640053
273,vilyuchinsk,52.9306,158.4028,277.3,65,100,11.75,RU,1682640053
274,kapa'a,22.0752,-159.319,302.14,65,22,1.79,US,1682640054
275,tazacorte,28.629,-17.9293,292.68,70,0,2.06,ES,1682640054
276,bardai,11.65,7.2333,297.82,61,100,6.34,NG,1682640054
277,as sulayyil,20.4607,45.5779,299.29,27,80,1.17,SA,1682640054
278,kingston,17.997,-76.7936,298.28,87,91,0.48,JM,1682640015
279,vidyayevo,69.3191,32.8049,266.42,93,23,2.8,RU,1682640055
280,nelson bay,-32.7167,152.15,295.43,75,7,2.68,AU,1682640055
281,holualoa,19.6228,-155.9522,297.87,87,46,2.24,US,1682640055
282,vorgashor,67.5833,63.95,266.42,93,67,6.47,RU,1682639885
283,laojunmiao,39.8333,97.7333,274.06,34,0,2.55,CN,1682640056
284,shalqar,47.8333,59.6,290.89,37,100,2.13,KZ,1682640056
285,ketchikan,55.3422,-131.6461,280.14,98,100,3.29,US,1682640057
286,kolokani,13.5728,-8.0339,300.99,10,4,4.37,ML,1682640057
287,santana,-0.0583,-51.1817,300.25,94,20,2.06,BR,1682640057
288,vallegrande,-18.4897,-64.1069,286.36,99,10,1.3,BO,1682640058
289,siniscola,40.5719,9.6922,285.9,78,77,1.13,IT,1682640058
290,gisborne,-38.6533,178.0042,288.69,69,100,1.17,NZ,1682640058
291,sitka,57.0531,-135.33,280.09,81,100,6.17,US,1682640058
292,toliara,-23.35,43.6667,295.56,76,0,6.45,MG,1682640059
293,sofiyivka,48.0493,33.8746,282.05,90,100,5.25,UA,1682640059
294,hutchinson island south,27.2995,-80.2205,300.98,74,0,6.26,US,1682640059
295,kupang,-10.1667,123.5833,300.47,83,40,4.63,ID,1682640060
296,vilyuysk,63.7553,121.6247,273.78,87,99,1.82,RU,1682640060
297,columbia falls,48.3725,-114.1815,289.89,25,0,2.06,US,1682640021
298,buga,3.9009,-76.2978,298.99,91,69,0.31,CO,1682640060
299,el porvenir,13.7617,-87.3458,302.78,67,94,1.97,HN,1682640061
300,darwin,-12.4611,130.8418,303.09,74,20,3.09,AU,1682640005
301,garrel,52.95,8.0167,279.88,87,100,4.22,DE,1682640061
302,kalemie,-5.9475,29.1947,294.86,86,66,1.1,CD,1682640062
303,bereznik,62.8551,42.7072,272.11,92,100,3.02,RU,1682640062
304,moyynkum,44.2914,72.9469,285.73,35,0,6.77,KZ,1682640062
305,puerto rico,-26.796,-55.024,289.49,82,5,0.13,AR,1682640063
306,cavelossim,15.1726,73.9419,300.14,82,4,1.54,IN,1682640063
307,polyarnyy,69.1989,33.4478,267.81,87,19,4.68,RU,1682640064
308,selfoss,63.9331,-20.9971,273.73,98,100,2.47,IS,1682640066
309,guerrero negro,27.9769,-114.0611,291.13,72,12,8.34,MX,1682640067
310,wailua homesteads,22.0669,-159.378,301.39,65,0,6.17,US,1682639793
311,auch,43.65,0.5833,290.86,78,79,1.79,FR,1682640068
312,cine,37.6117,28.0614,282.34,91,38,1.98,TR,1682640068
313,vallenar,-28.5708,-70.7581,290.78,65,3,0.99,CL,1682640068
314,garbahaarrey,3.3289,42.2209,299.47,75,96,4.77,SO,1682640069
315,karratha,-20.7377,116.8463,300.9,52,99,2.02,AU,1682639894
316,arkhangel'sk,64.5401,40.5433,271.21,79,0,5.0,RU,1682640070
317,mount isa,-20.7333,139.5,300.02,41,46,3.6,AU,1682640071
318,sai kung,22.3822,114.2728,296.94,89,100,0.89,CN,1682640071
319,hutang,31.5333,119.4833,292.15,71,60,2.14,CN,1682640072
320,mahanoro,-19.9,48.8,295.97,81,88,3.5,MG,1682639886
321,karasburg,-28.0167,18.75,287.77,43,3,2.11,,1682640072
322,dubbo,-32.25,148.6167,296.22,49,2,7.72,AU,1682640073
323,barcelos,41.5388,-8.6151,292.55,77,100,1.5,PT,1682639806
324,weno,7.4515,151.8468,299.97,84,100,7.75,FM,1682640074
325,wynyard,-41.0,145.7167,289.25,93,50,7.07,AU,1682640074
326,tofol,5.3248,163.0078,302.03,74,100,2.57,FM,1682640075
327,nuku'alofa,-21.1333,-175.2,299.34,94,100,7.72,TO,1682639782
328,dengzhou,37.8086,120.7508,287.8,71,97,6.29,CN,1682640075
329,kikwit,-5.041,18.8162,295.89,92,78,0.81,CD,1682640076
330,gwadar,25.1216,62.3254,298.95,74,80,1.86,PK,1682640076
331,estevan,49.1334,-102.9842,283.34,50,100,8.23,CA,1682640076
332,ain oussera,35.4514,2.9058,296.01,21,67,3.35,DZ,1682640077
333,valozhyn,54.0909,26.5225,274.53,86,65,2.4,BY,1682640077
334,margate,51.3813,1.3862,283.65,84,100,2.68,GB,1682639673
335,hermanus,-34.4187,19.2345,288.55,83,32,4.61,ZA,1682639906
336,imbituva,-25.23,-50.6044,288.68,79,50,0.74,BR,1682640078
337,kisoro,-1.2854,29.685,286.91,97,99,1.3,UG,1682640079
338,thai binh,20.45,106.3333,298.43,88,61,5.26,VN,1682640079
339,al burayqah,30.4062,19.5739,290.54,64,4,6.15,LY,1682640079
340,flying fish cove,-10.4217,105.6791,300.21,82,99,8.2,CX,1682639889
341,geraldton,-28.7667,114.6,284.38,82,0,4.12,AU,1682639911
342,greenville,35.6127,-77.3663,292.24,93,75,2.06,US,1682639816
343,island harbour,50.724,-1.2758,286.01,96,100,2.68,GB,1682640080
344,al kharijah,25.4514,30.5464,296.52,25,0,2.83,EG,1682640080
345,nuuk,64.1835,-51.7216,274.49,80,8,6.71,GL,1682640080
346,vadso,70.0744,29.7487,273.64,93,55,5.66,NO,1682639829
347,pokhara,28.2333,83.9833,292.44,35,7,3.04,NP,1682640081
348,bodaybo,57.8506,114.1933,275.23,71,56,0.49,RU,1682640082
349,tucumcari,35.1717,-103.725,298.67,14,0,1.54,US,1682640082
350,figuig (centre),32.1089,-1.2286,298.63,15,79,1.06,MA,1682640082
351,sao jose da coroa grande,-8.8978,-35.1478,299.0,85,97,2.32,BR,1682640083
352,zhigalovo,54.8097,105.1578,274.76,72,87,1.11,RU,1682640083
353,lautoka,-17.6167,177.4667,301.07,83,75,2.06,FJ,1682640084
354,angren,41.0167,70.1436,288.47,37,9,2.85,UZ,1682640084
355,nanning,22.8167,108.3167,297.4,88,98,5.21,CN,1682640010
356,egilsstadir,65.2653,-14.3948,271.1,74,75,3.6,IS,1682640085
357,galesong,-5.3166,119.3661,299.16,82,99,3.17,ID,1682640085
358,dudinka,69.4058,86.1778,255.62,100,100,0.94,RU,1682640085
359,akureyri,65.6835,-18.0878,271.11,64,40,2.57,IS,1682640086
360,kutum,14.2,24.6667,296.09,50,82,2.21,SD,1682640086
361,poxoreo,-15.8372,-54.3892,296.29,82,8,0.27,BR,1682640086
362,bikenibeu village,1.3673,173.1241,304.13,70,40,4.63,KI,1682640087
363,glace bay,46.1969,-59.957,276.98,92,100,3.6,CA,1682640087
364,kolwezi,-10.7148,25.4667,286.24,91,48,3.15,CD,1682640032
365,cambria,35.5641,-121.0808,301.06,69,38,1.83,US,1682640088
366,young,-32.6833,-57.6333,290.23,73,67,2.67,UY,1682640088
367,calvinia,-31.4707,19.776,283.47,95,6,0.99,ZA,1682640088
368,ascension,30.2169,-90.9001,300.39,65,0,2.57,US,1682640089
369,fuling,29.7022,107.3919,293.04,82,98,0.44,CN,1682640089
370,lazaro cardenas,17.9583,-102.2,300.62,60,97,4.72,MX,1682640089
371,galle,6.0367,80.217,298.59,90,87,4.13,LK,1682640090
372,atherton,53.5237,-2.4935,282.2,91,100,0.45,GB,1682640090
373,huntsville,34.7304,-86.5861,291.08,93,100,3.13,US,1682639852
374,tocache,-8.1842,-76.5125,295.68,97,100,0.65,PE,1682640091
375,forster,-32.1667,152.5167,295.45,71,9,0.89,AU,1682639901
376,ecoporanga,-18.3733,-40.8306,296.72,73,8,1.34,BR,1682640091
377,dunedin,-45.8742,170.5036,287.48,59,3,0.55,NZ,1682639909
378,zalari,53.5584,102.5065,275.95,69,100,3.39,RU,1682640092
379,thunder bay,48.4001,-89.3168,281.14,66,75,8.75,CA,1682639966
380,iskateley,67.6803,53.1512,268.21,93,99,3.82,RU,1682639863
381,salekhard,66.53,66.6019,266.94,86,100,4.22,RU,1682640093
382,tucuma,-0.1833,-50.05,296.64,95,100,2.15,BR,1682640094
383,uturoa,-16.7333,-151.4333,300.96,76,65,3.48,PF,1682639888
384,arraial do cabo,-22.9661,-42.0278,297.13,88,20,4.63,BR,1682640094
385,kislovodsk,43.9133,42.7208,280.95,83,92,1.9,RU,1682640095
386,inyati,-19.6756,28.8469,287.94,68,3,3.15,ZW,1682640096
387,freetown,8.484,-13.2299,299.46,75,37,3.31,SL,1682640096
388,puerto baquerizo moreno,-0.9,-89.6,299.5,78,63,4.13,EC,1682640097
389,south bay,26.664,-80.7162,300.38,78,91,3.25,US,1682640097
390,fortaleza,-3.7227,-38.5247,298.22,94,0,1.54,BR,1682640002
391,tangalle,6.024,80.7911,298.47,90,69,3.18,LK,1682640098
392,villa juarez,24.6536,-107.5411,302.1,28,0,5.39,MX,1682640098
393,mazagao,-0.115,-51.2894,300.18,97,100,1.74,BR,1682640098
394,tazovsky,67.4667,78.7,266.07,92,100,3.54,RU,1682639896
395,gantang,26.92,119.6333,292.91,78,99,0.61,CN,1682640099
396,port alfred,-33.5906,26.891,289.92,89,90,2.27,ZA,1682639716
397,mitu,1.1983,-70.1733,295.95,94,23,0.43,CO,1682640099
398,al hazm,16.1641,44.7769,298.67,42,71,2.19,YE,1682640099
399,tralee,52.2704,-9.7026,283.81,95,87,1.91,IE,1682639882
400,bintulu,3.1667,113.0333,299.38,94,40,0.0,MY,1682640100
401,semnan,35.5729,53.3971,291.71,46,100,0.99,IR,1682640100
402,ziro,27.6333,93.8333,282.48,90,100,1.31,IN,1682640100
403,aljezur,37.3191,-8.8033,291.28,62,98,1.98,PT,1682640101
404,nikol'sk,53.7189,46.0712,284.05,70,54,0.98,RU,1682640101
405,sokhumi,43.0033,41.0153,288.89,85,100,2.58,GE,1682640101
406,nadi,-17.8,177.4167,301.15,83,75,2.06,FJ,1682640102
407,den burg,53.0542,4.7972,282.13,76,100,6.17,NL,1682640102
408,megion,61.0296,76.1136,279.16,100,100,6.18,RU,1682640102
409,ocho rios,18.4025,-77.1048,298.6,80,92,3.18,JM,1682639861
410,longyearbyen,78.2186,15.6401,271.06,93,100,5.14,SJ,1682639802
411,huarmey,-10.0681,-78.1522,297.57,81,62,4.69,PE,1682640103
412,kenai,60.5544,-151.2583,280.2,53,75,2.57,US,1682640103
413,kailua-kona,19.6406,-155.9956,299.94,87,38,2.24,US,1682640003
414,onguday,50.75,86.15,276.79,87,100,1.64,RU,1682640104
415,tarrafal de sao nicolau,16.5667,-24.3667,295.25,79,25,5.81,CV,1682640104
416,mejit,10.2753,170.8646,300.55,80,36,7.91,MH,1682640104
417,nadym,65.5333,72.5167,267.87,95,100,9.26,RU,1682640105
418,warrnambool,-38.3833,142.4833,286.67,78,100,8.03,AU,1682640105
419,evron,48.1564,-0.3997,288.05,98,100,4.13,FR,1682640105
420,alvorada,-12.48,-49.1247,297.64,68,53,1.06,BR,1682640105
421,mana,5.6592,-53.7767,298.15,90,98,3.54,GF,1682640106
422,itaituba,-4.2761,-55.9836,299.41,81,99,0.58,BR,1682640106
423,kavaratti,10.5669,72.642,301.37,71,82,1.24,IN,1682640106
424,palmer,42.1584,-72.3287,284.38,63,24,1.98,US,1682640003
425,nishinoomote,30.7333,131.0,294.46,60,40,4.12,JP,1682640107
426,opuwo,-18.0607,13.84,294.9,43,24,2.18,,1682640107
427,livny,52.4253,37.6069,284.1,95,93,3.83,RU,1682640107
428,bay city,43.5945,-83.8889,290.27,54,0,4.63,US,1682639936
429,marion,39.7684,-86.1555,291.36,42,100,5.14,US,1682639681
430,labuan,5.2767,115.2417,300.35,83,20,1.54,MY,1682640108
431,magadi,12.9667,77.2333,295.9,74,68,2.07,IN,1682640108
432,ponta delgada,37.7333,-25.6667,290.55,94,20,6.17,PT,1682639878
433,oranjemund,-28.55,16.4333,286.92,91,7,2.7,,1682640109
434,axim,4.8699,-2.2405,299.4,85,100,2.58,GH,1682640109
435,coyhaique,-45.5752,-72.0662,282.49,87,100,2.06,CL,1682640109
436,sidi amrane,33.4989,6.008,299.59,18,2,3.41,DZ,1682640109
437,guasdualito,7.2424,-70.7324,303.15,66,40,1.54,VE,1682640110
438,ta`u,-14.2336,-169.5144,301.24,72,99,5.49,AS,1682639892
439,inongo,-1.95,18.2667,295.31,91,79,1.8,CD,1682640110
440,puri,19.8,85.85,299.44,84,30,4.8,IN,1682640111
441,callao,-12.0667,-77.15,298.31,69,75,6.17,PE,1682640025
442,siguiri,11.6667,-9.5,302.54,10,96,0.78,GN,1682640112
443,freeport,40.6576,-73.5832,285.63,79,0,4.47,US,1682640112
444,sumbawa besar,-8.5,117.4333,299.24,87,94,0.23,ID,1682640112
445,namdrik,5.5994,168.1028,301.55,78,100,6.81,MH,1682640113
446,metlili chaamba,32.2667,3.6333,298.67,12,0,1.03,DZ,1682640113
447,la foa,-21.7108,165.8276,296.79,71,67,5.12,NC,1682640113
448,taro,-8.3862,115.28,296.15,89,94,0.64,ID,1682640113
449,hauterive,46.0901,3.4459,285.57,93,86,1.77,FR,1682640114
450,ishigaki,24.3448,124.1572,297.22,88,75,4.63,JP,1682640114
451,westport,41.1415,-73.3579,284.38,82,71,1.79,US,1682640112
452,calca,-13.3333,-71.95,289.79,81,74,2.15,PE,1682640114
453,tobruk,32.0836,23.9764,289.28,65,0,8.33,LY,1682640115
454,brookings,44.3114,-96.7984,290.15,65,75,4.12,US,1682640115
455,bamboo flat,11.7,92.7167,301.45,74,86,1.09,IN,1682640116
456,cadiz,36.5,-5.75,295.79,42,94,3.67,ES,1682639916
457,guarapari,-20.6667,-40.4975,297.53,91,35,2.49,BR,1682640116
458,northam,51.0333,-4.2167,285.03,97,100,5.75,GB,1682639898
459,mount pearl,47.5166,-52.7813,273.4,93,100,7.2,CA,1682639817
460,yorkton,51.2167,-102.4677,279.06,65,100,3.09,CA,1682640087
461,dellys,36.9172,3.9131,293.29,57,66,2.52,DZ,1682640117
462,gur'yevsk,54.2833,85.9333,284.05,69,100,6.41,RU,1682640117
463,mingyue,43.1069,128.9217,281.8,84,100,0.29,CN,1682640118
464,kibuye,-2.0597,29.3482,291.73,87,99,1.0,RW,1682640118
465,faya-largeau,17.9257,19.1043,302.52,13,27,5.93,TD,1682640119
466,nago,26.5881,127.9761,296.62,75,100,3.97,JP,1682640120
467,viedma,-40.8135,-62.9967,290.63,30,92,3.8,AR,1682640060
468,hastings,50.8552,0.5729,285.44,56,100,4.28,GB,1682639944
469,ranavav,21.6842,69.7408,298.73,81,1,2.87,IN,1682640120
470,ekibastuz,51.6667,75.3667,287.88,46,70,4.7,KZ,1682640121
471,alesund,62.4723,6.1549,275.79,86,80,3.6,NO,1682640121
472,amurzet,47.6967,131.0981,284.21,22,100,1.93,RU,1682640122
473,avenal,36.0041,-120.129,306.02,19,20,1.99,US,1682640123
474,rayevskaya,44.8319,37.5556,282.68,84,100,0.81,RU,1682640123
475,kununurra,-15.7667,128.7333,302.14,54,18,1.54,AU,1682639824
476,la serena,-29.9078,-71.2542,287.88,82,75,3.09,CL,1682640056
477,collipulli,-37.95,-72.4333,288.55,81,99,2.52,CL,1682640124
478,murzuq,25.9155,13.9184,297.29,17,0,4.56,LY,1682640124
479,yarmouth,41.7057,-70.2286,282.15,87,75,4.12,US,1682640124
480,nabire,-3.3667,135.4833,301.76,76,72,0.66,ID,1682639900
481,gbarnga,6.9956,-9.4722,295.41,99,13,0.84,LR,1682639880
482,ilhabela,-23.7781,-45.3581,295.19,82,57,2.37,BR,1682640125
483,kerikeri,-35.2268,173.9474,290.88,93,100,5.0,NZ,1682639899
484,nova xavantina,-14.6667,-52.35,296.12,86,35,0.68,BR,1682640110
485,jawf al maqbabah,13.8378,45.8349,298.31,62,77,0.95,YE,1682640126
486,kroya,-7.6331,109.2461,299.24,85,100,1.15,ID,1682640126
487,iola,37.9245,-95.4,290.1,59,75,2.06,US,1682640127
488,calliope,-24.0,151.2,299.65,57,2,5.14,AU,1682640127
489,trondheim,63.4305,10.3951,277.2,92,100,0.45,NO,1682639955
490,myeik,12.4333,98.6,299.53,82,41,1.29,MM,1682640128
491,salahonda,2.1019,-78.7217,299.96,81,84,1.5,CO,1682640128
492,minggang,32.4586,114.0486,291.55,69,45,2.25,CN,1682640128
493,sechura,-5.5569,-80.8222,301.34,63,41,6.65,PE,1682640128
494,dryden,49.7833,-92.7503,279.31,75,40,1.03,CA,1682639852
495,vila do maio,15.1333,-23.2167,295.59,81,48,7.1,CV,1682639832
496,charlottetown,46.2352,-63.1267,276.24,94,100,2.57,CA,1682640075
497,saldanha,-33.0117,17.9442,287.18,83,0,1.56,ZA,1682639871
498,mandalgovi,45.7625,106.2708,270.96,58,7,7.58,MN,1682640131
499,kokoda,-8.8785,147.7407,302.02,78,100,1.08,PG,1682640131
500,safaga,26.7292,33.9365,299.35,36,0,2.55,EG,1682640131
501,manokwari,-0.8667,134.0833,301.36,71,100,1.2,ID,1682640132
502,rosarito,32.3333,-117.0333,296.85,69,34,4.52,MX,1682640132
503,nogliki,51.8333,143.1667,273.36,96,100,4.7,RU,1682640133
504,novyy turtkul',41.55,61.0167,288.1,14,45,3.09,UZ,1682640133
505,wakkanai,45.4094,141.6739,283.14,66,0,4.63,JP,1682640099
506,el granada,37.5027,-122.4694,306.99,69,0,8.23,US,1682640133
507,port hedland,-20.3167,118.5667,298.18,61,97,1.54,AU,1682639713
508,kosh-agach,50.0,88.6667,273.14,67,99,0.44,RU,1682640134
509,lakatoro,-16.0999,167.4164,301.88,67,7,2.98,VU,1682640135
510,peel,-33.3167,149.6333,291.77,69,3,3.84,AU,1682640135
511,sirvan,39.9379,48.9286,288.25,92,1,0.2,AZ,1682639905
512,peno,56.9262,32.7426,277.21,95,100,3.37,RU,1682640136
513,porkhov,57.765,29.5561,277.53,95,99,1.1,RU,1682640136
514,mokwa,9.2833,5.05,299.24,71,100,2.32,NG,1682640136
515,howrah,22.5892,88.3103,297.15,88,20,2.06,IN,1682639908
516,flin flon,54.7682,-101.865,283.06,32,75,2.06,CA,1682640137
517,berezovyy,51.6667,135.7,275.38,82,100,2.18,RU,1682640138
518,yuzhno-kurilsk,44.0306,145.8556,280.73,73,51,9.45,RU,1682639845
519,puerto maldonado,-12.6,-69.1833,297.37,88,0,0.0,PE,1682639923
520,yakeshi,49.2833,120.7333,277.99,46,100,2.22,CN,1682640139
521,manado,1.487,124.8455,301.58,83,40,0.51,ID,1682640139
522,east london,-33.0153,27.9116,293.37,70,90,2.92,ZA,1682639713
523,galliano,29.4422,-90.2992,299.82,73,0,3.6,US,1682640140
524,sisimiut,66.9395,-53.6735,271.06,81,17,4.53,GL,1682640140
525,nova olimpia,-14.7972,-57.2881,296.77,84,3,0.21,BR,1682640141
526,mancio lima,-7.6142,-72.8958,298.19,100,75,1.03,BR,1682640141
527,kruisfontein,-34.0033,24.7314,290.31,89,62,1.99,ZA,1682640141
528,gamagori,34.8333,137.2333,294.12,2,79,0.89,JP,1682640142
529,olyokminsk,60.3736,120.4264,276.23,69,22,1.0,RU,1682639941
530,ma'an,26.9775,110.7211,291.21,94,100,0.18,CN,1682640142
531,gamba,-2.65,10.0,299.02,86,98,1.38,GA,1682640143
532,sao joao da barra,-21.6403,-41.0511,297.2,91,61,3.25,BR,1682640143
533,ambovombe,-25.1667,46.0833,293.75,85,4,5.71,MG,1682640144
534,slave lake,55.2834,-114.769,283.14,43,0,2.06,CA,1682640144
535,neelankarai,12.9455,80.2575,302.61,89,40,1.03,IN,1682640144
536,fale old settlement,-9.3852,-171.2468,301.86,74,98,5.74,TK,1682640145
537,boende,-0.2167,20.8667,296.28,81,55,0.43,CD,1682640145
538,turinskaya sloboda,57.6232,64.3858,284.6,76,7,4.21,RU,1682640145
539,birobidzhan,48.8,132.95,282.14,32,25,2.14,RU,1682640146
540,luena,-11.7833,19.9167,286.01,63,17,2.05,AO,1682640146
541,lata,40.1629,-8.3327,289.77,73,95,1.28,PT,1682640147
542,fisterra,42.9049,-9.2629,287.05,79,100,1.13,ES,1682640147
543,fort mcmurray,56.7268,-111.381,285.92,37,75,1.54,CA,1682640025
544,padang,-0.9492,100.3543,297.18,95,100,1.23,ID,1682639868
545,kiunga,-6.1219,141.2906,299.36,94,84,1.39,PG,1682640148
546,whakatane,-37.9585,176.9854,291.21,69,100,2.68,NZ,1682640148
547,touros,-5.1989,-35.4608,300.64,78,100,3.75,BR,1682640019
548,gaoual,11.75,-13.2,302.32,21,65,0.93,GN,1682640148
549,upper dir,35.2058,71.8756,284.38,68,4,2.22,PK,1682640149
550,bangassou,4.7413,22.8184,295.3,73,83,0.54,CF,1682640150
551,mwinilunga,-11.7358,24.4293,285.97,82,79,1.57,ZM,1682640150
552,siwa oasis,29.2041,25.5195,291.34,49,0,4.29,EG,1682640150
553,sapri,40.0751,15.6296,287.13,64,91,2.49,IT,1682640151
554,kijang,35.2442,129.2139,286.0,63,96,4.37,KR,1682640151
555,yanaul,56.2719,54.9309,282.79,92,8,2.83,RU,1682640151
556,belmonte,-15.8631,-38.8828,297.74,78,0,3.65,BR,1682640152
557,arkhara,49.4212,130.0842,281.81,34,8,1.48,RU,1682640152
558,centerville,39.6284,-84.1594,291.27,40,0,2.06,US,1682639999
559,tupaciguara,-18.5922,-48.705,292.92,79,29,0.81,BR,1682640153
560,chulakkurgan,43.765,69.1814,286.0,33,0,1.27,KZ,1682640153
561,bambanglipuro,-7.95,110.2833,299.17,84,100,1.16,ID,1682640154
562,gilgit,35.9221,74.3087,284.4,62,19,0.35,PK,1682640154
563,kalmunai,7.4167,81.8167,299.38,84,41,2.31,LK,1682640154
564,happy valley-goose bay,53.3168,-60.3315,282.32,49,40,3.09,CA,1682640155
565,znamensk,48.5842,45.7338,287.44,61,64,4.31,RU,1682640155
566,vrapciste,41.8339,20.8853,277.1,80,2,1.3,MK,1682640155
567,port moresby,-9.4431,147.1797,300.66,81,95,1.0,PG,1682640155
568,villamontes,-21.25,-63.5,292.82,68,0,0.73,BO,1682640156
569,puerto lempira,15.2667,-83.7667,303.23,70,0,6.17,HN,1682640156
570,lukolela,-1.0605,17.1821,295.36,92,60,0.46,CD,1682640156
571,bubaque,11.2833,-15.8333,299.2,72,22,9.39,GW,1682640157
572,yima,34.7381,111.8839,287.1,63,100,7.36,CN,1682640157
573,betio village,1.358,172.9211,304.17,78,44,6.52,KI,1682640157
574,portland,45.5234,-122.6762,300.56,46,20,5.66,US,1682639462
575,paciran,-6.8767,112.3761,299.51,87,81,2.59,ID,1682640158
576,ciudad lazaro cardenas,17.9583,-102.2,300.62,60,97,4.72,MX,1682639878
577,shakiso,5.75,38.9167,287.42,98,99,1.01,ET,1682640158
578,uhlingen-birkendorf,47.7167,8.3167,285.51,85,96,0.47,DE,1682640158
579,ca mau,9.1769,105.15,301.27,80,85,2.97,VN,1682640159
580,moussoro,13.6408,16.4901,304.48,9,63,5.69,TD,1682640159
581,turtas,58.9417,69.1325,282.72,90,41,2.83,RU,1682640159
582,verkhnevilyuysk,63.4453,120.3167,273.65,92,81,1.18,RU,1682640159
